[
    {"id": 1,"title": "Child Bride", "Actor": "Jeannie TIM", "Hours": "3H45", "Version": "VF", "D": "", "Image": "./Images/Avengers.jpg","Description": "BLABALBLLABLAL BABALLALBLLA abALLBLA BLABALBLLABLAL BABALLALBLLA abALLBLA "}, 
    {"id": 2, "title": "Last Time I", "Actor": "Jeannie TIM", "Hours": "2H15", "Version": "VO", "D": "", "Image": "./Images/Avengers.jpg","Description": "BLABALBLLABLAL BABALLALBLLA abALLBLA"}, 
    {"id": 3, "title": "Jerry Seinfeld: '", "Actor": "Jeannie TIM", "Hours": "2H35", "Version": "VF", "D": "", "Image": "./Images/ok.jpg","Description": "BLABALBLLABLAL BABALLALBLLA abALLBLA"}, 
    {"id": 4, "title": "Youth Without Youth", "Actor": "Jeannie TIM", "Hours": "3H45", "Version": "VO", "D": "", "Image": "./Images/dragon.jpg","Description": "BLABALBLLABLAL BABALLALBLLA abALLBLA"}, 
    {"id": 5, "title": "Happy Here and Now", "Actor": "Arthur TIM", "Hours": "3H15", "Version": "VF", "D": "","Image": "./Images/MenBlack.jpg","Description": "BLABALBLLABLAL BABALLALBLLA abALLBLA" }, 
    {"id": 6, "title": "Wedding in Blood (Noces rouges, Les)", "Actor": "Jeannie TIM", "Hours": "1H55", "Version": "VF", "D": "","Image": "./Images/Toy-Story.jpg","Description": "BLABALBLLABLAL BABALLALBLLA abALLBLA" }, 
    {"id": 7, "title": "Vampire in Venice (Nosferatu a Venezia) (Nosferatu in Venice)", "Actor": "TT TIM", "Hours": "2H55", "Version": "VF", "D": "","Image": "./Images/dragon.jpg","Description": "BLABALBLLABLAL BABALLALBLLA abALLBLA" }, 
    {"id": 8, "title": "Monty Python's The Meaning of Life", "Actor": "Will Simth TIM", "Hours": "2H25", "Version": "VF", "D": "", "Image": "./Images/Avengers.jpg","Description": "BLABALBLLABLAL BABALLALBLLA abALLBLA"}, 
    {"id": 9, "title": "Awakening, The", "Actor": "Vince TIM", "Hours": "3H45", "Version": "VF", "D": "", "Image": "./Images/BradPitt.jpg","Description": "BLABALBLLABLAL BABALLALBLLA abALLBLA"}, 
    {"id": 10, "title": "Trip, The", "Actor": "Adrienne TIM", "Hours": "5H45", "Version": "VF", "D": "", "Image": "./Images/MenBlack.jpg","Description": "BLABALBLLABLAL BABALLALBLLA abALLBLA"}
]